[
  {
    "id": "wmkk",
    "name": "Kuala Lumpur International Airport (WMKK/KUL)",
    "category": "airport",
    "lat": 2.74558,
    "lon": 101.709999,
    "rank": 1,
    "oneLiner": "Departure airport; MH370 took off from runway 32R (threshold 2.74739N 101.722E) at 16:42 UTC, 7 Mar 2014.",
    "source": "OurAirports airports.csv + runways.csv (raw.githubusercontent.com/davidmegginson/ourairports-data); takeoff time FI p1 via Gilbert PDF (vridar.org)"
  },
  {
    "id": "wmkp",
    "name": "Penang International Airport (WMKP/PEN)",
    "category": "airport",
    "lat": 5.296303,
    "lon": 100.276185,
    "rank": 2,
    "oneLiner": "Military radar tracked MH370 passing 6 NM south of Penang Island at 17:52:35 UTC during the turnback.",
    "source": "OurAirports airports.csv; 17:52:35 event FI p7 via Gilbert PDF (vridar.org)"
  },
  {
    "id": "wmkc-kota-bharu",
    "name": "Kota Bharu (Sultan Ismail Petra Airport, WMKC)",
    "category": "airport",
    "lat": 6.16685,
    "lon": 102.293,
    "rank": 2,
    "oneLiner": "MH370 crossed the peninsula coast just north of Kota Bharu at ~17:37 UTC on the turnback leg.",
    "source": "OurAirports airports.csv; coast-crossing time FI p7 via Gilbert PDF (vridar.org), mh370search.com gives 17:36:43"
  },
  {
    "id": "igari",
    "name": "Waypoint IGARI",
    "category": "waypoint",
    "lat": 6.936667,
    "lon": 103.585,
    "rank": 1,
    "oneLiner": "Last waypoint passed under secondary radar (17:20:31 UTC); transponder ceased and the turnback began just beyond it.",
    "source": "Wikipedia MH370 article (6°56'12\"N 103°35'06\"E), cross-checked with FI flight plan table N0656.2 E10335.1 via mh370wiki.net"
  },
  {
    "id": "bitod",
    "name": "Waypoint BITOD",
    "category": "waypoint",
    "lat": 7.256667,
    "lon": 104.118333,
    "rank": 2,
    "oneLiner": "Next filed waypoint after IGARI; MH370 turned back before reaching it.",
    "source": "FI filed flight plan table (N0715.4 E10407.1) via mh370wiki.net Waypoints_and_MH370"
  },
  {
    "id": "golud",
    "name": "Waypoint GOLUD",
    "category": "waypoint",
    "lat": 6.285,
    "lon": 102.2775,
    "rank": 3,
    "oneLiner": "One of a cluster of waypoints (with ABTOK, KADAX) near Kota Bharu that the turnback track passed over or near.",
    "source": "OpenNav (6°17'06\"N 102°16'39\"E); passed-near statement mh370wiki.net History of the flight"
  },
  {
    "id": "pukar",
    "name": "Waypoint PUKAR",
    "category": "waypoint",
    "lat": 5.478611,
    "lon": 100.720556,
    "rank": 3,
    "oneLiner": "Waypoint near Butterworth passed on the peninsula crossing toward Penang.",
    "source": "OpenNav (5°28'43\"N 100°43'14\"E); passed-near statement mh370wiki.net History of the flight"
  },
  {
    "id": "vampi",
    "name": "Waypoint VAMPI",
    "category": "waypoint",
    "lat": 6.182222,
    "lon": 97.585556,
    "rank": 2,
    "oneLiner": "Airway N571 waypoint in the Strait of Malacca; primary radar tracked MH370 passing it at 18:13 UTC.",
    "source": "OpenNav (6°10'56\"N 97°35'08\"E); 18:13:00 event FI p7 via Gilbert PDF (vridar.org)"
  },
  {
    "id": "mekar",
    "name": "Waypoint MEKAR",
    "category": "waypoint",
    "lat": 6.503889,
    "lon": 96.491111,
    "rank": 1,
    "oneLiner": "N571 waypoint; the last primary radar fix at 18:22:12 UTC lies 10 NM beyond it toward NILAM.",
    "source": "OpenNav (6°30'14\"N 96°29'28\"E); cross-validated geometrically against the published 10-NM-past-MEKAR fix 6.577655N 96.340864E (mh370search/radiantphysics)"
  },
  {
    "id": "nilam",
    "name": "Waypoint NILAM",
    "category": "waypoint",
    "lat": 6.756389,
    "lon": 95.976389,
    "rank": 2,
    "oneLiner": "Next N571 waypoint beyond MEKAR; radar contact was lost before MH370 reached it.",
    "source": "OpenNav (6°45'23\"N 95°58'35\"E)"
  },
  {
    "id": "idkut",
    "name": "Waypoint IDKUT",
    "category": "waypoint",
    "lat": 8.004722,
    "lon": 95.504722,
    "rank": 3,
    "oneLiner": "Waypoint northwest of NILAM, relevant to post-18:22 path hypotheses (beyond recorded epochs).",
    "source": "OpenNav (8°00'17\"N 95°30'17\"E)"
  },
  {
    "id": "last-secondary-radar",
    "name": "Last secondary radar contact (17:21:13 UTC)",
    "category": "event",
    "lat": 6.984,
    "lon": 103.664,
    "rank": 1,
    "oneLiner": "Transponder symbol disappeared from KL ATCC radar just past IGARI; end of Epoch 1.",
    "source": "time FI p2 via Gilbert PDF (vridar.org); position interpolated ~42 s past IGARI on 059° toward BITOD (exact FI coords not verifiable from fetched sources)"
  },
  {
    "id": "last-primary-radar",
    "name": "Last primary radar fix (18:22:12 UTC)",
    "category": "event",
    "lat": 6.577655,
    "lon": 96.340864,
    "rank": 1,
    "oneLiner": "Final military radar detection, 10 NM past MEKAR on N571 at ~29,500 ft; end of Epoch 2 (alternative Lido-slide position: 6.871123N 97.354047E).",
    "source": "mh370search.com / radiantphysics (Iannello), SIR-figure interpretation; altitude Wikipedia MH370 article"
  },
  {
    "id": "pulau-perak",
    "name": "Pulau Perak",
    "category": "region",
    "lat": 5.680556,
    "lon": 98.940833,
    "rank": 2,
    "oneLiner": "Small island in the Strait of Malacca; military radar recorded MH370 passing it at 18:02 UTC.",
    "source": "Wikipedia Pulau Perak (5°40'50\"N 98°56'27\"E); 18:02 time Wikipedia MH370 article"
  },
  {
    "id": "ha01-cape-leeuwin",
    "name": "HA01 Cape Leeuwin hydroacoustic station (hydrophone H01W1)",
    "category": "station",
    "lat": -34.89299,
    "lon": 114.15398,
    "rank": 1,
    "oneLiner": "CTBTO IMS hydrophone triad ~100 km SW of Cape Leeuwin whose recordings were analysed by Curtin University for MH370 impact signals.",
    "source": "H01W1 coordinates from Table 1 of PMC10028758 (Royal Society Open Science COVID ocean-noise study); role per mh370search.com and CTBTO"
  },
  {
    "id": "learmonth",
    "name": "RAAF Learmonth Airport (YPLM)",
    "category": "airport",
    "lat": -22.235201,
    "lon": 114.090024,
    "rank": 3,
    "oneLiner": "Western Australian air base used as a staging point for RAAF/RNZAF search sorties over the southern Indian Ocean.",
    "source": "OurAirports airports.csv"
  },
  {
    "id": "perth-ges",
    "name": "Inmarsat ground earth station, Perth (PITC)",
    "category": "station",
    "lat": -31.802522,
    "lon": 115.885161,
    "rank": 2,
    "oneLiner": "Ground station at the Perth International Telecommunications Centre that logged the hourly satellite handshakes defining the BTO/BFO arcs.",
    "source": "site coordinates (-31°48'09\"S 115°53'07\"E) from ESA Perth station page (co-located at PITC); Inmarsat GES role per Wikipedia MH370 satellite communications"
  },
  {
    "id": "inmarsat-3f1-ssp",
    "name": "Inmarsat-3 F1 nominal sub-satellite point",
    "category": "satellite",
    "lat": 0,
    "lon": 64.5,
    "rank": 1,
    "oneLiner": "IOR satellite relaying MH370's handshakes; nominally geostationary at 64.5°E, drifting in an oval between 1.6°S-1.6°N and 64.45-64.58°E.",
    "source": "Wikipedia: Malaysia Airlines Flight 370 satellite communications"
  },
  {
    "id": "seventh-arc-csiro",
    "name": "7th arc - CSIRO/ATSB most-likely crash region",
    "category": "region",
    "lat": -35.6,
    "lon": 92.8,
    "rank": 1,
    "oneLiner": "CSIRO drift-analysis point (35.6°S 92.8°E) on the 7th BTO arc, identified with 'unprecedented precision'; centre of the priority search region.",
    "source": "Wikipedia MH370 article, cross-checked with CSIRO news release (csiro.au, Aug 2017)"
  },
  {
    "id": "broken-ridge",
    "name": "Broken Ridge",
    "category": "region",
    "lat": -31,
    "lon": 95,
    "rank": 2,
    "oneLiner": "Rugged oceanic plateau in the SE Indian Ocean crossed by the 7th arc; complicated the underwater search bathymetry.",
    "source": "Wikipedia Broken Ridge (listed centre 31°S 95°E; feature ~1,200 km long)"
  },
  {
    "id": "reunion-flaperon",
    "name": "Flaperon find site, Saint-André, Réunion",
    "category": "event",
    "lat": -20.9606,
    "lon": 55.6506,
    "rank": 1,
    "oneLiner": "First confirmed MH370 debris - a right flaperon found on a Saint-André beach on 29 July 2015, ~4,000 km west of the search area.",
    "source": "commune coordinates Wikipedia Saint-André, Réunion (20°57'38\"S 55°39'02\"E; beach on NE shore, exact spot not published); find details Wikipedia MH370 / Search articles"
  }
]